Name,Latitude,Longitude
National Garden (Εθνικός Κήπος),37.97345,23.737892
Concert Hall Gardens (Κήπος Μεγάρου Μουσικής Αθηνών),37.98167,23.75306
Άλσος Λυκαβηττού,37.984042,23.741339
Nea Smirni Grove (Άλσος Νέας Σμύρνης),37.949762,23.716308
Stavros Niarchos Park (Πάρκο Σταύρος Νιάρχος),37.941364,23.692307
Great Lawn (SNFCC) (Ξέφωτο (ΚΠΙΣΝ)),37.93995,23.69187
Veikou Grove (Άλσος Βεΐκου),38.02831,23.764326
Αττικό Άλσος,38.003376,23.760363
Skopeftirio Grove (Άλσος Σκοπευτηρίου),37.964858,23.762114
Άλσος Περιστερίου,38.018005,23.683289
Άλσος Παπάγου,37.99336,23.794187
Άλσος Ψυχικού,38.011131,23.775958
Flisvos Park (Πάρκο Φλοίσβου),37.927885,23.688284
Άλσος Φιλοθέης,38.022022,23.779723
Άλσος Πετρούπολης,38.044641,23.685965
Άλσος Συγγρού,37.97403,23.757275
Πάρκο Ηρώδου Αττικού,37.975757,23.719282
St. George's Park - Trocadero (Πάρκο Αγίου Γεωργίου - Τροκαντερό),37.933492,23.690089
Πάρκο περιβαλλοντικής ευαισθητοποίησης 'Αντώνης Τρίτσης',38.044927,23.724162
Pani Hill (Λόφος Πανί),37.913153,23.730729
Άλσος Προμπονά,38.031098,23.73995
Πάρκο Αλίμου,37.910622,23.71057
Πάρκο Ελευθερίας,37.983095,23.753207
Petroupoli Park,38.036012,23.689343
Esplanada (Εσπλανάδα),37.936128,23.691079
Κηποθέατρο Παπάγου,37.992607,23.796031
Άλσος Γουδή,37.98444,23.773745
Πάρκο Κεραμεικού,37.977672,23.715254
Άλσος Περιπάτου,37.982779,23.791054
Κτήμα Συγγρού,38.061566,23.815806
Kaisariani Municipal Park (Δημοτικό Πάρκο Καισαριανής),37.966439,23.773148
Άλσος Μιχάλη Πουλάκη,38.022205,23.780066
Mikis Theodorakis Park (Πάρκο Μίκης Θεοδωράκης),38.03749,23.836207
Πάρκο Αγίας Φιλοθέης,38.028222,23.783843
Δάσος Καισαριανής,37.9617,23.797321
Αττικό Πάρκο Βριλησσίων-Χαλανδρίου,38.028791,23.825478
Kifissia Grove (Άλσος Κηφισιάς),38.072956,23.809053
Άλσος Αιγάλεω Μπαρουτάδικο,37.994217,23.676529
Αρχαιολογικό Πάρκο Ακαδημίας Πλάτωνος,37.992384,23.709071
Άλσος Διονύσου,38.013071,23.757206
Σελεπίτσαρι,37.966777,23.627157
Προφήτης Ηλίας,38.007817,23.657782
Πάρκο Σχολής Χωροφυλακής,37.989818,23.770735
Πρότυπο Οικογενειακό Πάρκο Αργυρούπολης-Ελληνικού,37.91478,23.751067
Άλσος Αγίου Φιλίππου,37.973721,23.637002
Πάρκο Σκύλων,37.996163,23.801193
Άλσος Χολαργού,37.996297,23.803012
Κτήμα Τατοΐου,38.15697,23.794545
Παλατάκι Χαϊδαρίου,38.011658,23.663707
Allou! Fun Park,37.973505,23.672893
Panathenaic Stadium (Παναθηναϊκό Στάδιο (Καλλιμάρμαρο)),37.968334,23.741112
Karaiskaki Stadium (Στάδιο Καραϊσκάκη),37.946518,23.66423
"Στάδιο ΑΕΚ ""Αγιά Σοφιά""",38.036954,23.74142
Apostolos Nikolaidis Stadium (Γήπεδο Απόστολος Νικολαΐδης),37.9872,23.754179
Olympic Indoor Basketball Arena (Ολυμπιακό Κλειστό Γήπεδο Καλαθοσφαίρισης),38.037716,23.784694
Nova Tennis Club,37.999309,23.779354
K1 & K2 Oaka,38.041767,23.787371
Athens Sports Hall Center,37.994991,23.712382
Olympic Stadium (Ολυμπιακό Στάδιο),38.036789,23.78762
Θύρα 7,37.946753,23.664564
Olympic Aquatic Center (Ολυμπιακό Κέντρο Υγρού Στίβου),38.038269,23.782994
Milonas Tennis Club,37.942141,23.709772
SEF - Peace & Friendship Stadium (ΣΕΦ - Στάδιο Ειρήνης & Φιλίας),37.942519,23.667235
Maroussi Tennis Club,38.046034,23.82551
"Κλειστό Γήπεδο Παλαιού Φαλήρου ""Σοφία Μπεφόν""",37.932927,23.689318
Filothei Tennis Club,38.027526,23.782263
Acharnai Tennis Academy,38.090933,23.759661
Δημοτικό Αθλητικό Κέντρο Περιστερίου - Γήπεδο Χωράφας,38.028926,23.678498
Τάφος Του Ινδού,37.986867,23.755308
Δημοτικό Στάδιο Νέας Ερυθραίας Φώτης Βαρδαξής,38.108576,23.822556
Glyfada Track Stadium (Γήπεδο Στίβου Γλυφάδας),37.870698,23.753756
ΕΑΚ Αθλητικές Εγκαταστάσεις,37.998452,23.678567
Olympic Tennis Center (Ολυμπιακό Κέντρο Αντισφαίρισης),38.03965,23.791602
Αθλητικό Κέντρο Ραδιοφωνίας,38.03775,23.708141
Δημοτικό Στάδιο Καλλιθέας Γρηγόρης Λαμπράκης,37.959992,23.714824
Α' Δημοτικό Στάδιο Αργυρούπολης,37.897914,23.756272
Aerial Dance by Katerina Soldatou,38.039034,23.782684
Κλειστό Γυμναστήριο Πετρούπολης,38.043843,23.690705
"Κλειστό ΑΣ ΠΑΠΑΓΟΥ ""Σαλούν""",37.988832,23.786915
Κλειστό Γυμναστήριο Γαλατσίου,38.027969,23.763617
Chalikaki Athletic Centre (Αθλητικό Κέντρο Χαλικάκι),37.945008,23.752705
Τέννις Νέας Ερυθραίας,38.099857,23.813278
Δημοτικό Στάδιο Χαλανδρίου «Νικόλαος Πέρκιζας»,38.033235,23.824479
Olympic Sports Center Athens,38.04234,23.782869
Κλειστό Γήπεδο Ψυχικού,38.009057,23.770352
Θεμιστόκλειο Στάδιο,37.958901,23.630058
Δημοτικό Αθλητικό Κέντρο Κορυδαλλού,37.983181,23.651511
Κλειστό Γυμναστήριο Ιωνικός Ζαχαρίας Αλεξάνδρου,38.034523,23.735428
Δημοτικό Γήπεδο Παλλήνης,38.005839,23.872479
Κλειστό Γυμναστήριο Δάφνης «Μιχάλης Μουρούτσος»,37.946268,23.730508
Δημοτικό Γήπεδο Χολαργού,38.001699,23.808891
Δημοτικό Στάδιο Φιλοθέης,38.026972,23.780821
VIP Lounge,37.9465,23.664407
"Κλειστό Περιστερίου ""Ανδρέας Παπανδρέου""",38.004072,23.6893
Spata Municipal Stadium (Δημοτικό Στάδιο Σπάτων Δημήτρης Δημητρίου),37.96735,23.905705
Γήπεδο Μαραθώνα,38.151578,23.961334
Κλειστό Δημοτικό Γυμναστήριο Ραφήνας,38.014734,24.010895
Olympic Velodrome (Ολυμπιακό Ποδηλατοδρόμιο),38.04018,23.780371
Στάδιο Νέας Σμύρνης,37.94345,23.708881
Δημοτικό Στάδιο Ζωγράφου,37.979474,23.770996
