Name,Latitude,Longitude,Local_type
Fogg Bar Birras & Cheese,40.412335,-3.697985,Bar
1862 Dry Bar,40.424136,-3.706563,Bar
Salmon Guru,40.414875,-3.699518,Bar
Bodega de la Ardosa,40.423769,-3.701818,Bar
Casa Gerardo,40.409185,-3.711943,Bar
La Mayor,40.415106,-3.712051,Bar
La Virgen Cerveza Pura,40.499456,-3.889043,Bar
Vinoteca Vides,40.421027,-3.697231,Bar
La Tienda de la Cerveza,40.410561,-3.708148,Bar
Mad Brewing,40.43507,-3.631287,Bar
Cervecería Polar,40.452334,-3.707084,Bar
La Canibal,40.407495,-3.696503,Bar
Casa Macareno,40.425918,-3.704816,Bar
InClan Brutal Bar,40.415058,-3.70189,Bar
Maimu,40.42894,-3.703849,Bar
Sagasta,40.428759,-3.701858,Bar
Cervecería Schoppen,40.547985,-3.640624,Bar
El Sur de Huertas,40.413654,-3.699419,Bar
Lobby Westin Palace,40.415084,-3.695304,Bar
Mercado de San Miguel,40.415382,-3.70895,Bar
Takos,40.418938,-3.703748,Bar
La Pescadería,40.422886,-3.703032,Bar
La Castela,40.42027,-3.676574,Bar
Casa González,40.414078,-3.698935,Bar
Bodegas Rosell,40.403727,-3.690897,Bar
Ten Con Ten,40.427815,-3.688551,Bar
Plaza Mayor,40.41499,-3.707201,Bar
Lavinia,40.430191,-3.684333,Bar
Carmencita Bar,40.426078,-3.707352,Bar
Vinoteca Moratín,40.412527,-3.695455,Bar
Azotea Círculo de Bellas Artes,40.418255,-3.696485,Bar
The Hat Madrid,40.414235,-3.707136,Bar
Taberna Laredo,40.420182,-3.675157,Bar
Angelita Madrid,40.420313,-3.700518,Bar
Bee Beer,40.421892,-3.696943,Bar
Rosi la Loca,40.415733,-3.702907,Bar
Alimentación Quiroga,40.413768,-3.699448,Bar
El Sur,40.411053,-3.69952,Bar
Labirratorium,40.433781,-3.708548,Bar
Alabaster,40.418223,-3.689839,Bar
El Imparcial,40.412012,-3.705853,Bar
Sala de Despiece,40.437915,-3.69953,Bar
Picalagartos Sky Bar,40.419832,-3.701152,Bar
Toma Café,40.426456,-3.705968,Bar
La Cabaña Argentina,40.415712,-3.699011,Bar
Tipos Infames,40.424755,-3.701095,Bar
Puerta del Sol,40.416918,-3.70325,Bar
El Paraguas,40.423744,-3.685827,Bar
Hola Coffee,40.406951,-3.699029,Bar
Taberna Origen,40.426594,-3.716323,Bar
Myst Gym Club,40.416597,-3.705452,Gym
Holiday Gym,40.426269,-3.674121,Gym
Holiday Gym,40.393793,-3.764777,Gym
Opera Gym,40.42009,-3.709722,Gym
Holiday Gym Garden,40.406983,-3.659217,Gym
Holiday Gym,40.451526,-3.693638,Gym
Fitup Shot Urban Gym,40.396044,-3.693598,Gym
The Gym At The Madrid Edition,40.417847,-3.70615,Gym
Rebel Gym,40.443375,-3.696102,Gym
Viding,40.427924,-3.673652,Gym
Palacio Santa Ana,40.4144579168501,-3.7019124627113342,Gym
GoFit Vallehermoso,40.44075,-3.709133,Gym
Metropolitan Eurobuilding,40.458131,-3.685796,Gym
DreamFit Ventas,40.433378,-3.656728,Gym
AltaFit Estudiantes,40.44221,-3.686156,Gym
Crossfit Singular Box,40.427032,-3.662392,Gym
Arsenal Proyectos Deportivos,40.429602,-3.673021,Gym
Holmes Place Premium Fitness Clubs,40.452965,-3.692915,Gym
GO ﬁt Piscinas San Miguel,40.392457,-3.717857,Gym
Fitness Sports Valle de las Cañas,40.419827,-3.820189,Gym
CDM Go Fit Peñagrande,40.47699,-3.717502,Gym
McFit,40.402613,-3.697999,Gym
Basic-Fit Madrid Glorieta de Cádiz,40.388167,-3.700054,Gym
Metropolitan,40.437979,-3.693837,Gym
Reebok Sports Club la Finca,40.41998,-3.803886,Gym
AltaFit Puerta de Toledo,40.405164,-3.707666,Gym
David Lloyd Aravaca,40.472634,-3.768337,Gym
Urban Box Crossfit,40.402866,-3.702051,Gym
Forus Getafe,40.324417,-3.714263,Gym
FitUp,40.4149,-3.709191,Gym
Basic-Fit Madrid Delicias,40.404305,-3.693791,Gym
Físico,40.454959,-3.86867,Gym
Centro Deportivo el Sardinero,40.394937,-3.878359,Gym
Paidesport Center,40.406802,-3.726266,Gym
McFit,40.435612,-3.659154,Gym
Body Factory La Gavia,40.368306,-3.607922,Gym
GoFit Montecarmelo,40.499932,-3.714117,Gym
Spacio Deportivo el Capricho,40.45445,-3.593161,Gym
Gimnasio Urban Fitness,40.429128,-3.643901,Gym
Centro de Ocio el Horno,40.411033,-3.704505,Gym
Crossfit las Rozas,40.500245,-3.892088,Gym
VivaGym Embajadores | Gimnasio en Madrid,40.405691,-3.699464,Gym
Basic-Fit Madrid,40.41368,-3.70247,Gym
O2 Centro Wellness,40.429151,-3.681786,Gym
Basic-Fit Madrid,40.403678,-3.71342,Gym
Factory Fit,40.435286,-3.630201,Gym
CrossFit Krig Retiro,40.411067,-3.671959,Gym
Forus Coslada,40.429592,-3.562352,Gym
HealthCity,40.457513,-3.694797,Gym
Basic-Fit Madrid Goya,40.42534,-3.682934,Gym
Colegio Amorós,40.371765,-3.754781,Schools
CAE Centro de Simuladores,40.458222,-3.531052,Schools
International College Spain,40.517059,-3.642438,Schools
Colegio San Javier,40.397865,-3.705306,Schools
Colegio Nazaret Oporto,40.390298,-3.728161,Schools
Colegio Rafaela Ybarra,40.379553,-3.710338,Schools
Salesianos San Miguel Arcángel,40.41029,-3.734597,Schools
Colegio Publico Portugal,40.424884,-3.714747,Schools
Colegio de Fomento los Olmos,40.411641,-3.667202,Schools
Gredos San Diego Vallecas,40.380983,-3.652511,Schools
Colegio Buen Consejo,40.447295,-3.713039,Schools
Facultad de Derecho,40.450525,-3.730828,Schools
Centro de Educacion Infantil y Primaria Doctor Tolosa Latour,40.381933,-3.641937,Schools
Colegio Público Manuel Bartolomé Cossio,40.38129,-3.771671,Schools
Colegio Sagrada Familia,40.406417,-3.635199,Schools
Colegio Ártica,40.360834,-3.755932,Schools
Colegio Maria Virgen,40.455282,-3.684777,Schools
Colegio Nuestra Señora del Recuerdo,40.46854,-3.67765,Schools
Ies Tetuan de las Victorias,40.473088,-3.697336,Schools
Ceip Alvaro de Bazán,40.421492,-3.607405,Schools
Colegio Fuentelarreyna,40.483961,-3.729305,Schools
Liceo Sorolla,40.447097,-3.812721,Schools
Colegio Príncipes de Asturias,40.457047,-3.806624,Schools
Colegio Alameda de Osuna,40.455258,-3.594886,Schools
"Colegio Cortes de Cádiz, Sanchinarro",40.498712,-3.655559,Schools
Santa Maria la Blanca,40.511141,-3.697142,Schools
Colegio Estudiantes las Tablas,40.508844,-3.679331,Schools
Colegio Público Gabriela Mistral,40.507731,-3.667536,Schools
Cp Carmen Conde,40.34251,-3.833862,Schools
Colegio Highlands Encinar,40.503931,-3.638563,Schools
C.P. Mario Benedetti,40.371036,-3.549353,Schools
Colegio Suizo de Madrid,40.521048,-3.653859,Schools
Colegio Base,40.509711,-3.611135,Schools
Irlandesas,40.523553,-3.640994,Schools
Colegio Virgen de Europa,40.430662,-3.890661,Schools
Colegio Santa Teresa,40.262233,-3.85462,Schools
Colegio Público la Encina,40.519778,-3.902543,Schools
Colegio Peñalar,40.579944,-3.936899,Schools
Hospital Universitario Puerta de Hierro Majadahonda,40.450117,-3.873997,Schools
Instituto Cervantes,40.419262,-3.695219,Schools
Polideportivo Ignacio Pinedo,40.314781,-3.723937,Schools
O2 Centro Wellness,40.427403,-3.668743,Schools
Universidad Carlos III - Campus Puerta de Toledo,40.406908,-3.709672,Schools
Instituto San Isidro,40.412616,-3.707359,Schools
Real Academia Española,40.415065,-3.69094,Schools
Universidad de Nebrija,40.42942,-3.713065,Schools
Universidad Pontificia Comillas,40.429908,-3.711328,Schools
IE Business School MM31,40.437816,-3.682419,Schools
IMF Institucion Academica,40.402208,-3.698502,Schools
IE University,40.43784,-3.682256,Schools
Santiago Bernabéu Stadium (Estadio Santiago Bernabéu),40.453026,-3.688322,Others
Palacio de Deportes de la Comunidad de Madrid (Wizink Center),40.42391,-3.671763,Others
Estadio Wanda Metropolitano,40.436206,-3.599501,Others
Palco de Honor,40.453372,-3.688411,Others
Vestuario Real Madrid,40.453025,-3.68811,Others
Estadio de Vallecas,40.391834,-3.658721,Others
Players Tunnel,40.45313,-3.68786,Others
Estadio Municipal de Butarque,40.340386,-3.760622,Others
Club de Pádel y Tenis Fuencarral,40.502423,-3.707415,Others
La Caja Mágica,40.366489,-3.687457,Others
Planet Padel Indoor,40.452527,-3.483384,Others
Campos de Futbol Fuentelucha,40.550183,-3.658614,Others
Network Padel,40.454819,-3.46802,Others
Centro Deportivo Municipal Santa Ana,40.49778,-3.694044,Others
Coliseum Alfonso Pérez,40.32573,-3.714935,Others
Campo de Rugby Puerta de Hierro,40.462301,-3.748858,Others
Padel Sport Home,40.596702,-3.523787,Others
Estadio Antiguo Canódromo,40.397437,-3.735642,Others
Polideportivo el Carrascal Pabellón Europa,40.332473,-3.745591,Others
Vip Area Champions League,40.453227,-3.688688,Others
Palacio Vistalegre,40.386257,-3.73901,Others
CD San Roque,40.467535,-3.595061,Others
Madrid Arena,40.413185,-3.737794,Others
Estadio Román Valero,40.388474,-3.705205,Others
Corbacho Tenis,40.406525,-3.724734,Others
Santiago Bernabeo,40.41678,-3.70379,Others
Real Federacion Española de Hockey,40.413715,-3.719987,Others
Santiago Bernabéu,40.413371,-3.692157,Others
Club de Esgrima Cardenal Cisneros,40.423768,-3.70874,Others
Estadio Alfredo Di Stéfano,40.47635,-3.614373,Others
El estado mental,40.423138,-3.692819,Others
Pabellón Salesianos San Miguel Da Bosco,40.410079,-3.737948,Others
Pabellón Satélite,40.413763,-3.737977,Others
Campo de las Adelfas,40.403223,-3.668915,Others
Pista 4,40.370491,-3.685705,Others
Pista 5,40.369569,-3.684477,Others
Club de Tenis Coslada,40.434024,-3.540581,Others
Campo de Rugby el Cantizal,40.438976,-3.707437,Others
Módulo CSD,40.434143,-3.735791,Others
Estadio Nacional Universidad Complutense,40.436645,-3.732078,Others
Complejo Deportivo Zona Sur,40.438003,-3.729208,Others
Centro Deportivo Municipal la Elipa,40.413939,-3.654216,Others
Instalación Deportiva Municipal Gimnasio Moscardó,40.437961,-3.674548,Others
Centro Deportivo Municipal Villaverde,40.356593,-3.686316,Others
Industrias del Cuarzo,40.443536,-3.678245,Others
Polideportivo Fernando Martín,40.28251,-3.800577,Others
Complejo Deportivo Zona Norte,40.450763,-3.729195,Others
Pistas de Padel polideportivo Concepcion,40.438825,-3.647406,Others
Frontón de San Cristóbal,40.339853,-3.69072,Others
Vita 10 Escuela de Padel,40.412903,-3.791583,Others
Madrid Río,40.396744,-3.712842,Others
Parque del Retiro,40.414494,-3.68332,Others
Madrid Río,40.394509,-3.702607,Others
Madrid Río,40.39104,-3.70091,Others
Madrid Río,40.407368,-3.723195,Others
Jardines de las Vistillas,40.412399,-3.714493,Others
Parque de Enrique Tierno Galván,40.391459,-3.680685,Others
Parque de la Montaña,40.423559,-3.717628,Others
Rosaleda del parque del Oeste,40.427961,-3.721874,Others
Jardines de la Virgen del Puerto,40.41643,-3.721523,Others
Casa de Campo,40.422383,-3.740673,Others
Parque Lineal del Manzanares,40.337916,-3.689088,Others
Pradera de San Isidro,40.399038,-3.724606,Others
Parque de las Siete Tetas,40.397525,-3.655556,Others
Madrid Río - Salón de Pinos,40.400449,-3.722664,Others
Dehesa de la Villa,40.45817,-3.720712,Others
Parque de la Quinta de la Fuente del Berro,40.424097,-3.661564,Others
Parque de la Arganzuela,40.398362,-3.707546,Others
Parque de Santander,40.441815,-3.70656,Others
Parque de Berlín,40.450426,-3.675721,Others
Puerta de Madrid de los Jardines del Buen Retiro,40.420795,-3.681858,Others
Jardines de el Buen Retiro,40.419537,-3.687677,Others
Cuesta de Moyano,40.409577,-3.691493,Others
Puerta de Murillo de los Jardines del Buen Retiro,40.412829,-3.688602,Others
Parque de Madrid,40.416668,-3.688675,Others
Parque Quinta de los Molinos,40.443433,-3.627907,Others
Parque de Atracciones de Madrid,40.411111,-3.749642,Others
Parque Juan Pablo II,40.455077,-3.626201,Others
Parque Juan Carlos I,40.460809,-3.605833,Others
Parque Madrid Río,40.420474,-3.70466,Others
Parque de Roma,40.416427,-3.662581,Others
Parque Forestal Fuente Carrantona,40.410584,-3.628595,Others
Puerta de España de los Jardines del Buen Retiro,40.416709,-3.688624,Others
Recinto Ferial Casa de Campo,40.408497,-3.744462,Others
Parque de Atenas,40.414194,-3.718713,Others
Parque de Valdebernardo,40.398065,-3.6069,Others
Parque Emperatriz María de Austria,40.377936,-3.721962,Others
Parque el Paraiso,40.430616,-3.621798,Others
Parque forestal de Valdebebas,40.494443,-3.617213,Others
Fuente de Apolo (Madrid),40.417102,-3.693909,Others
Parque de Santa María,40.47854,-3.647727,Others
Parque Juan Carlos I,40.243357,-3.696003,Others
Parque de la Bombilla,40.431408,-3.730096,Others
Dehesa de Navalcarbón,40.510202,-3.886376,Others
Jardín de la Vega,40.536119,-3.632074,Others
Parque Central,40.607803,-3.708941,Others
Parque de Pradolongo,40.375005,-3.707662,Others
Parque de Calero,40.437174,-3.651221,Others
Clinica Parque de las Avenidas,40.442575,-3.663412,Others
Parque Natural el Soto,40.326968,-3.898524,Others
Tres Cerditos,40.397256,-3.694159,Restaurants
Plenti,40.412146,-3.696457,Restaurants
La Cabaña Argentina,40.415712,-3.699011,Restaurants
Takos,40.418938,-3.703748,Restaurants
La Pescadería,40.422886,-3.703032,Restaurants
La Hummuseria,40.423439,-3.700042,Restaurants
Aarde,40.419701,-3.689125,Restaurants
Honest Greens Hortaleza,40.424816,-3.697854,Restaurants
Taberna Origen,40.426594,-3.716323,Restaurants
Konnichiwa,40.427891,-3.701765,Restaurants
El Paraguas,40.423744,-3.685827,Restaurants
Amazónico,40.423675,-3.68509,Restaurants
Zuma Madrid,40.426315,-3.689566,Restaurants
Ultramarinos Quintin,40.423929,-3.685366,Restaurants
Lamucca de Almagro,40.428375,-3.695205,Restaurants
La Castela,40.42027,-3.676574,Restaurants
Ten Con Ten,40.427815,-3.688551,Restaurants
Casa Dani,40.427112,-3.685708,Restaurants
Taberna Laredo,40.420182,-3.675157,Restaurants
Honest Greens Serrano,40.428724,-3.687555,Restaurants
Las Tortillas de Gabino,40.433857,-3.69389,Restaurants
Fratelli Figurato,40.438919,-3.697848,Restaurants
Cañadío Madrid,40.433338,-3.674813,Restaurants
Honest Greens Velázquez,40.43751,-3.683314,Restaurants
Casa Benigna,40.448152,-3.674383,Restaurants
Asador Donostiarra,40.461687,-3.69571,Restaurants
Urrechu,40.419462,-3.79698,Restaurants
Taberna Entretres,40.439919,-3.790221,Restaurants
Everest Tandoori,40.464214,-3.649527,Restaurants
A'Fenestella,40.468188,-3.638647,Restaurants
El Barco Aparicio,40.445919,-3.801874,Restaurants
Filandón,40.504818,-3.716831,Restaurants
Pirata's,40.338088,-3.813527,Restaurants
La General,40.470722,-3.580532,Restaurants
Jiménez Restaurante,40.473143,-3.837731,Restaurants
The Black co,40.284837,-3.789971,Restaurants
Panorama Oyster Bar,40.458993,-3.861228,Restaurants
El Ochenta,40.470903,-3.851016,Restaurants
Verde Oliva Gastroteca,40.468145,-3.871037,Restaurants
Flanker,40.494123,-3.880463,Restaurants
Pizzería tipica il gusto per l'autentico,40.237584,-3.768064,Restaurants
La Ricarda,40.303221,-3.904241,Restaurants
Shoopo HomeBar,40.59616,-3.705341,Restaurants
La Churrasquita,40.596136,-3.698596,Restaurants
Restaurante Patati´ss,40.23687,-3.764927,Restaurants
Cafetería Gran Vía,40.242623,-3.698601,Restaurants
Sabor y Sazón Venezolano,40.596727,-3.701416,Restaurants
100 Montaditos,40.2406,-3.690748,Restaurants
Casa Emeterio,40.597125,-3.702323,Restaurants
El templo de la cerveza,40.218728,-3.75749,Restaurants
