Name,Latitude,Longitude,Local_type
Can Dendê,41.39836,2.198345,Restaurants
La Tavernícola,41.400358,2.197944,Restaurants
Little Fern,41.402328,2.197571,Restaurants
Parking Pizza,41.396301,2.174171,Restaurants
Elsa y Fred,41.389795,2.17976,Restaurants
Funky Bakers,41.394916,2.172866,Restaurants
Casa Lolea Barcelona,41.388833,2.177238,Restaurants
Barestaurant L’Univers,41.38642,2.178275,Restaurants
Bar Andalucía,41.40301,2.207488,Restaurants
Forn Baluard,41.379982,2.18887,Restaurants
BelleBuon,41.411346,2.173289,Restaurants
Honest Greens Rambla Catalunya,41.387526,2.167989,Restaurants
Ciutat Comtal,41.388858,2.166857,Restaurants
Baluard,41.396235,2.163216,Restaurants
Vinitus,41.389977,2.164035,Restaurants
Macchina Pasta Bar,41.380122,2.176738,Restaurants
La Pepita,41.398016,2.161031,Restaurants
Cecconi's,41.37848,2.179446,Restaurants
Cervecería Catalana,41.392376,2.160808,Restaurants
Bar Cañete,41.379099,2.173131,Restaurants
Forn Mistral,41.384608,2.1641,Restaurants
Pizza Circus,41.377945,2.172923,Restaurants
La Flauta,41.386876,2.161108,Restaurants
Comida de Olla,41.412203,2.164128,Restaurants
El Pachuco,41.376494,2.1691,Restaurants
Chivuo's,41.40495,2.153926,Restaurants
Rekons,41.380631,2.160955,Restaurants
Parking Pizza,41.393794,2.151435,Restaurants
Quimet & Quimet,41.37392,2.165612,Restaurants
Ugot Bruncherie,41.381367,2.155379,Restaurants
The Egg Lab,41.378512,2.156292,Restaurants
Copasetic Barcelona,41.380191,2.153277,Restaurants
Manso's Café,41.375466,2.15879,Restaurants
The Fish & Chips Shop,41.378592,2.154501,Restaurants
El Asador de Aranda,41.430292,2.185992,Restaurants
Mantequerias Pirenaicas,41.401941,2.139299,Restaurants
Triki-Trac,41.381494,2.14144,Restaurants
Txokoa Barcelona,41.390107,2.138875,Restaurants
Negro-Rojo,41.390963,2.13547,Restaurants
El Asador de Aranda,41.413324,2.134448,Restaurants
Kobuta Ramen,41.369808,2.133189,Restaurants
Granja Elena,41.362754,2.137446,Restaurants
Antichi Sapori de Angelis,41.375874,2.119249,Restaurants
Plats,41.359379,2.073295,Restaurants
Can Pizza Prat,41.325417,2.09885,Restaurants
CÈNTRIC Gastrobar by ONA nuit,41.322088,2.09416,Restaurants
Serrajòrdia,41.46827,2.079203,Restaurants
La Burgueseria,41.466996,2.078581,Restaurants
Can Ferran,41.512784,2.05169,Restaurants
Can Mont Cad,41.582304,2.131627,Restaurants
Gym,41.411948,2.21964,Gym
El Gym,41.358391,2.124174,Gym
W Hotel Gym,41.368857,2.190458,Gym
VivaGym Meridiana,41.426125,2.185266,Gym
Viva Gym Glories,41.404614,2.191027,Gym
Viva Gym Bruc,41.392726,2.171336,Gym
VivaGym Londres,41.392241,2.148738,Gym
VivaGym Entença,41.381885,2.147109,Gym
Viva Gym Av. Roma,41.381185,2.145531,Gym
Club Metropolitan,41.401771,2.17122,Gym
CEM Can Felipa,41.403621,2.200412,Gym
Club Metropolitan Balmes,41.39837,2.150968,Gym
CrossFit Eixample,41.392478,2.176902,Gym
Holmes Place Balmes,41.388832,2.16353,Gym
Iradier Club Mujer,41.404879,2.126481,Gym
Club Natació Atlètic-Barceloneta,41.373104,2.18862,Gym
Holmes Place,41.38887,2.163826,Gym
Metropolitan Spain,41.381523,2.133549,Gym
Arsenal Amigó,41.397384,2.142336,Gym
La Huella Crossfit Barcelona,41.385973,2.150183,Gym
Club Natacio Sant Andreu,41.429957,2.18635,Gym
Centre Esportiu Joan Miró,41.378479,2.150979,Gym
Reebok Crossfit BCN,41.394629,2.181609,Gym
Nova Icària Esports Club,41.392158,2.197759,Gym
Climbat Foixarda,41.366506,2.148303,Gym
Club Metropolitan,41.376249,2.148901,Gym
Anytime Fitness Ciutadella,41.393061,2.186539,Gym
Club Metropolitan,41.449848,2.248335,Gym
Claror Sardenya,41.404562,2.171505,Gym
AltaFit Diagonal,41.397929,2.168218,Gym
Polideportivo Municipal Francesc Calvet,41.369019,2.063877,Gym
CEM Maresme,41.412289,2.213331,Gym
CEM Parc de la Ciutadella,41.385579,2.18636,Gym
Gimnasio McFIT Barcelona Universitat,41.388035,2.165913,Gym
Metropolitan Gran Vía,41.346641,2.109578,Gym
Poliesportiu Municipal Frontó Colom,41.377923,2.176301,Gym
Fundacio Privada Claror,41.406923,2.179634,Gym
Nick Spa & Sports Club,41.427063,2.165741,Gym
Holmes Place Europolis Les Corts,41.385564,2.134994,Gym
DiR Diagonal,41.393546,2.136552,Gym
DiR Club Hispà,41.431167,2.148989,Gym
Aiguajoc,41.376324,2.163818,Gym
Duet Fit Sagrada Familia,41.407336,2.180823,Gym
10.01 Health Coach,41.382032,2.156737,Gym
Gimnasio Dona10 Wellness Center,41.386935,2.146379,Gym
Activitats Esportives Eixample,41.380382,2.14991,Gym
David Lloyd Club Turó,41.383016,2.107909,Gym
McFit,41.390073,2.143225,Gym
Seven DiR,41.392843,2.162325,Gym
Centre Esportiu Municipal Premià,41.492765,2.364081,Gym
Escola Oficial d'Idiomes,41.376799,2.173472,Schools
Escola Oficial d´Idiomes Barcelona Vall d´Hebron,41.4268,2.13849,Schools
Agora Sant Cugat International School,41.494532,2.077463,Schools
Escola Oficial D. Idiomes de Sabadell,41.55325,2.112351,Schools
Centre D'educacio Infantil I Primaria Ramon Llull,41.400852,2.17776,Schools
Vila Olímpica,41.39396,2.202743,Schools
Maristes la Immaculada,41.399027,2.171938,Schools
PRBB - Parc de Recerca Biomèdica de Barcelona,41.38509,2.19455,Schools
Kiddys Music,41.404544,2.164833,Schools
Guinardó,41.415203,2.16726,Schools
CEIP Rosa dels Vents,41.425468,2.18912,Schools
Escola Oficial d'Idiomes,41.423669,2.208783,Schools
Escola Virolai,41.417227,2.152572,Schools
The English School,41.418648,2.142869,Schools
Escola Projecte,41.41178,2.136,Schools
Col.legi Sta. Dorotea,41.39262,2.129386,Schools
A Tempo Estudis Musicals,41.383315,2.130392,Schools
Llar d'infants Mickey Mouse,41.38513,2.128074,Schools
Parc de pràctiques de Trànsit Montjuïc,41.359558,2.146768,Schools
Facultat de Dret UB,41.387792,2.12054,Schools
ESADE Facultad de Derecho,41.394341,2.114898,Schools
Betania Patmos,41.396389,2.109838,Schools
Escola Prat de la Manta,41.359629,2.127359,Schools
Escola Paco Candel,41.360372,2.121489,Schools
IES Ausiàs March,41.386343,2.105883,Schools
Highlands School Barcelona,41.382313,2.094364,Schools
The American School Of Barcelona,41.383986,2.084527,Schools
Autoescuela Requena,41.365944,2.073002,Schools
Escola bressol Font Freda,41.489958,2.189365,Schools
Stucom,41.385784,2.165148,Schools
Europa International School,41.469677,2.094243,Schools
Mas Rampinyo,41.498073,2.17865,Schools
Federacion Catalana de Tenis,41.348861,2.069561,Schools
Escola Oficial d'Idiomes,41.476755,2.089846,Schools
Facultat de Medicina UAB,41.498351,2.105458,Schools
Facultat de Dret UAB,41.500883,2.105536,Schools
Escola Thau,41.492569,2.069768,Schools
Col.legi la Vall,41.510766,2.091411,Schools
Sant Nicolau,41.545653,2.112793,Schools
Escola de Municipal de Música,41.550744,2.245053,Schools
Bon Soleil,41.27267,2.000048,Schools
Escola Lluís Vives,41.275788,1.976248,Schools
EPS Centro de Formacion de la Motocicleta,41.427478,2.17115,Schools
Hospital Universitari Germans Trias i Pujol,41.480877,2.237717,Schools
Biblioteca Poblenou-Manuel Arranz,41.401412,2.204491,Schools
Biblioteca Xavier Benguerel,41.392655,2.19771,Schools
Metropolitan Gran Vía,41.346641,2.109578,Schools
CEM Parc de la Ciutadella,41.385579,2.18636,Schools
Residencia Campus del Mar,41.382625,2.191039,Schools
Biblioteca Joan Miró,41.378639,2.149179,Schools
Camp Nou,41.380922,2.122783,Others
Palau Sant Jordi,41.363205,2.152591,Others
Olympic Stadium Lluís Companys (Estadi Olímpic Lluís Companys),41.36476,2.155625,Others
Palau Blaugrana,41.380163,2.120141,Others
RCDE Stadium,41.347733,2.075446,Others
Padel Indoor Hospitalet,41.358233,2.10882,Others
Pàdel Augusta,41.485018,2.058962,Others
Pista Coberta de Catalunya,41.536402,2.124229,Others
Ciutat Esportiva Joan Gamper FCBarcelona,41.377292,2.050366,Others
Plaza de Toros Monumental (Plaça de Bous Monumental),41.40006,2.181206,Others
Parc de la Ciutadella,41.388545,2.171217,Others
Parc del Poblenou,41.397117,2.207435,Others
Parc del Guinardó,41.419553,2.17135,Others
Jardins del Teatre Grec,41.369578,2.159119,Others
Jardins del Palau Robert,41.396003,2.158932,Others
Parc de Montjuïc,41.362557,2.154415,Others
Jardines de Joan Brossa,41.368267,2.167415,Others
Jardins del Mirador,41.367574,2.169399,Others
Parc del Turó del Putxet,41.40732,2.143153,Others
Parc del Clot,41.407833,2.190267,Others
Collage Art & Cocktails Social Club,41.382565,2.181517,Bar
Old Fashioned,41.398037,2.159761,Bar
Paradiso,41.383693,2.183671,Bar
Kӕlderkold,41.381708,2.173324,Bar
Can Cisa,41.384839,2.179958,Bar
La Vinya del Senyor,41.383284,2.181806,Bar
Viblioteca,41.402844,2.157227,Bar
La Rovira,41.407459,2.15806,Bar
Tandem Cocktail Bar,41.389615,2.157902,Bar
Senyor Vermut,41.385903,2.149395,Bar
Perikete,41.381289,2.183356,Bar
Bodega Sopena,41.407881,2.188106,Bar
Chulapio,41.379282,2.165844,Bar
La Vicoca - Bar de Vins,41.374218,2.144304,Bar
Two Schmucks,41.383166,2.165252,Bar
Zim,41.383062,2.178304,Bar
Bodega Armando,41.3799,2.164802,Bar
Mosquito Sunset Club,41.361856,2.099593,Bar
Bloody Mary Cocktail Lounge,41.398333,2.159158,Bar
El Chigre 1769,41.38631,2.18309,Bar
Orvay,41.384081,2.182587,Bar
14 de la Rosa,41.399322,2.159734,Bar
Blavis,41.403394,2.147339,Bar
Hotel Arts Ritz Club Lounge,41.386653,2.196624,Bar
Tirsa Bcn Cocktail Bar,41.382545,2.147317,Bar
Fat Schmuck,41.381243,2.166841,Bar
Bodega la General,41.376872,2.134959,Bar
Bar Andalucía,41.40301,2.207488,Bar
Cervecería Catalana,41.392376,2.160808,Bar
Ciutat Comtal,41.388858,2.166857,Bar
La Micro Cerveseria,41.546741,2.10317,Bar
Companyia d'Alella,41.493118,2.293319,Bar
El Xampanyet,41.384569,2.18178,Bar
La Pepita,41.398016,2.161031,Bar
Vinitus,41.389977,2.164035,Bar
La Flauta,41.386876,2.161108,Bar
El Nacional,41.390683,2.16846,Bar
Quimet & Quimet,41.37392,2.165612,Bar
La Tasqueta de Blai,41.373432,2.165364,Bar
Tlaxcal,41.385021,2.184269,Bar
Casa Lolea Barcelona,41.388833,2.177238,Bar
Elsa y Fred,41.389795,2.17976,Bar
Chivuo's,41.40495,2.153926,Bar
Bar Cañete,41.379099,2.173131,Bar
El Pachuco,41.376494,2.1691,Bar
Chivuo's,41.382918,2.170022,Bar
Sensi,41.380318,2.180076,Bar
La Cervecita Nuestra de Cada Día,41.400385,2.201558,Bar
W Barcelona,41.368526,2.19014,Bar
Can Dendê,41.39836,2.198345,Bar
